google_map:
  options:
    internal:
      id: map
    provider:
      streetViewControl: false
      panControl: false
      zoomControlOptions:
      styles:
        - featureType: road
          elementType: geometry
          stylers:
            - lightness: 100
            - visibility: simplified
        - featureType: road
          elementType: labels
          stylers:
            - visibility: off
        - featureType: poi
          stylers:
            - visibility: off
        - featureType: poi
          elementType: labels.text
          stylers:
            - visibility: off
        - featureType: transit
          stylers:
            - visibility: off

locations:
  - area: North America
    groups:
      - location: San Francisco, CA
        url:      http://www.meetup.com/Ember-SF/
        image:    07sanfrancisco.png
        lat:      37.771959
        lng:      -122.402223
        organizers:
          - organizer: Leah Silber
            profileImage: http://photos1.meetupstatic.com/photos/member/9/1/a/c/highres_107077292.jpeg
          - organizer: Bear Douglas
            profileImage: http://photos3.meetupstatic.com/photos/member/5/b/4/d/highres_12323373.jpeg
          - organizer: Kait Olson
            profileImage: http://photos2.meetupstatic.com/photos/member/3/4/7/8/highres_163753432.jpeg
      - location: New York, NY
        url:      http://www.meetup.com/EmberJS-NYC/
        image:    04newyork.png
        lat:      40.740314
        lng:      -73.995068
        organizers:
          - organizer: Luke Melia
            profileImage: http://photos3.meetupstatic.com/photos/member/5/6/3/8/highres_5902072.jpeg
          - organizer: Jorge Davila
            profileImage: http://photos2.meetupstatic.com/photos/member/9/b/6/6/highres_215499782.jpeg
          - organizer: Kevin Prentiss
            profileImage: http://photos3.meetupstatic.com/photos/member/8/9/5/3/highres_5855155.jpeg
      - location: Chicago, IL
        url:      http://www.meetup.com/Chicago-Ember-js/
        image:    03chicago.png
        lat: 41.896917
        lng: -87.643547
        organizers:
          - organizer: Trek Glowacki
            profileImage: http://photos2.meetupstatic.com/photos/member/b/2/1/8/member_192885592.jpeg
          - organizer: Erik Bryn
          - organizer: Sean Massa
            profileImage: http://photos3.meetupstatic.com/photos/member/6/f/0/2/highres_9568418.jpeg
      - location: Boston, MA
        url:      http://www.meetup.com/Boston-Ember-js/
        image:    02boston.png
        lat:      42.353270
        lng:      -71.052556
        organizers:
          - organizer: Brian Cardarella
            profileImage: http://photos1.meetupstatic.com/photos/member/1/6/0/a/highres_75605642.jpeg
          - organizer: Alex Navasardyan
            profileImage: http://photos2.meetupstatic.com/photos/member/8/7/3/e/highres_55654622.jpeg
          - organizer: Dan McClain
            profileImage: http://photos3.meetupstatic.com/photos/member/7/3/5/c/highres_77009532.jpeg
          - organizer: Robert Jackson
            profileImage: http://photos1.meetupstatic.com/photos/member/8/2/a/c/member_138033452.jpeg
      - location: Atlanta, GA
        url:      http://www.meetup.com/Ember-Atlanta-Meetup/
        image:    01atlanta.png
        lat:      33.759205
        lng:      -84.331892
        organizers:
          - organizer: William Metz
          - organizer: Chris McCuller
            profileImage: http://photos2.meetupstatic.com/photos/member/a/5/3/4/highres_238302292.jpeg
          - organizer: Shane Ballman
            profileImage: http://photos4.meetupstatic.com/photos/member/b/d/4/e/highres_214428462.jpeg
      - location: Southern California, CA
        url:      http://www.meetup.com/Ember-SC/
        image:    05socal.png
        lat:      34.9592083
        lng:      -116.419389
      - location: Philadelphia, PA
        url:      http://www.meetup.com/Emberjs-Philly/
        image:    06philadelphia.png
        lat:      39.9525839
        lng:      -75.1652215
      - location: Seattle, WA
        url:      http://www.meetup.com/Ember-js-Seattle-Meetup/
        image:    08seattle.png
        lat:      47.6062095
        lng:      -122.3320708
      - location: St. Louis, MO
        url:      http://www.meetup.com/STLEmber
        lat:      38.6270025
        lng:      -90.19940419999999
      - location: Austin, TX
        url:      http://www.meetup.com/Ember-ATX/
        image:    16austin.png
        lat:      30.305083
        lng:      -97.743753
        organizers:
          - organizer: Brandon Hays
            profileImage: http://photos4.meetupstatic.com/photos/member/c/e/2/4/highres_111832772.jpeg
      - location: Washington, DC
        url:      http://www.meetup.com/Ember-JS-DC/
        image:    19washington.png
        lat:      38.9071923
        lng:      -77.0368707
      - location: Salt Lake City, UT
        url:      http://www.meetup.com/EmberJS-SLC
        lat:      40.7607793
        lng:      -111.8910474
      - location: Cincinnati, OH
        url:      http://www.meetup.com/Embernati
        lat:      39.1031182
        lng:      -84.5120196
      - location: Minneapolis / St. Paul, MN
        url:      http://www.meetup.com/Ember-Twin-Cities
        lat:      44.9716692
        lng:      -93.2806134
      - location: Portland, OR
        url:      http://www.meetup.com/Ember-PDX/
        lat:      45.5230622
        lng:      -122.6764816
      - location: Pittsburgh, PA
        url:      http://www.meetup.com/Ember-js-Pittsburgh/
        lat:      40.44062479999999
        lng:      -79.9958864
      - location: Denver, CO
        url:      http://www.meetup.com/Ember-js-Denver/
        lat:      39.7384357
        lng:      -104.9848593
      - location: Dallas, TX
        url:      http://www.meetup.com/Ember-Dallas
        lat:      32.7802618
        lng:      -96.8009781
      - location: Orlando, FL
        url:      http://www.meetup.com/Ember-js-Orlando/
        image:    01orlando.png
        lat:      28.5383355
        lng:      -81.3792365
      - location: Indianapolis, IN
        url:      http://www.meetup.com/Ember-js-Indianapolis/
        lat:      39.768403
        lng:      -86.158068
      - location: Toronto, Canada
        url:      http://www.meetup.com/Toronto-Ember-JS-Meetup/
        image:    15toronto.png
        lat:      43.653226
        lng:      -79.3831843
      - location: Ottawa, Canada
        url:      http://www.meetup.com/Ember-js-Ottawa/
        image:    13ottawa.png
        lat:      45.4215296
        lng:      -75.69719309999999
      - location: Vancouver, Canada
        url:      http://www.meetup.com/Vancouver-Ember-js/
        lat:      49.280425
        lng:      -123.106967
        organizers:
          - organizer: Godfrey Chan
            profileImage: http://photos1.meetupstatic.com/photos/member/7/7/f/8/member_96750712.jpeg
          - organizer: Paul Ruescher
            profileImage: http://photos3.meetupstatic.com/photos/member/6/a/d/member_10561709.jpeg
      - location: San Juan, Puerto Rico
        url:      http://www.meetup.com/Ember-PR/
        image:    21puertorico.png
      - location: Calgary, Canada
        url:      http://www.meetup.com/EmberJS-YYC/
        image:    23calgary.png
        lat:      51.031680
        lng:      -114.071849
        organizers:
          - organizer: Sean Goresht
            profileImage: http://photos1.meetupstatic.com/photos/member/1/2/4/a/member_118384682.jpeg
          - organizer: Richard Bezeme
            profileImage: http://photos3.meetupstatic.com/photos/member/6/a/2/4/highres_241647172.jpeg
  - area: South America
    groups:
      - location: São Paulo, Brazil
        url:      http://www.meetup.com/Ember-js-Sao-Paulo/
        lat:      -23.577786
        lng:      -46.673846
        organizers:
          - organizer: Lourenzo Ferreira
            profileImage: http://photos2.meetupstatic.com/photos/member/b/6/0/0/member_158206592.jpeg
          - organizer: Paulo Pires
            profileImage: http://photos1.meetupstatic.com/photos/member/b/0/e/c/member_172305292.jpeg
          - organizer: Beto Muniz
            profileImage: http://photos3.meetupstatic.com/photos/member/3/2/2/0/member_154812832.jpeg
      - location: Belo Horizonte, Brazil
        url:      http://www.meetup.com/Ember-BH/
        lat:      -19.9166813
        lng:      -43.9344931
      - location: Montevideo, Uruguay
        url:      http://www.meetup.com/ember-montevideo/
        lat:      -34.9011127
        lng:      -56.16453139999999
  - area: Europe
    groups:
      - location: Paris, France
        url:      http://www.meetup.com/EmberJS-Paris/
        image:    14paris.png
        lat:      48.856614
        lng:      2.3522219
      - location: London, UK
        url:      http://emberlondon.com
        image:    11london.png
        lat:      51.520860
        lng:      -0.077703
        organizers:
          - organizer: Jamie White
            profileImage: http://photos4.meetupstatic.com/photos/member/f/3/4/highres_65523892.jpeg
          - organizer: Karl Freeman
            profileImage: http://photos1.meetupstatic.com/photos/member/9/9/4/a/highres_240099242.jpeg
          - organizer: Ken Snyder
            profileImage: http://photos2.meetupstatic.com/photos/member/1/f/6/member_38040502.jpeg
      - location: Dublin, Ireland
        url:      http://www.meetup.com/emberjsdublin/
        image:    10dublin.png
        lat:      53.3498053
        lng:      -6.2603097
      - location: Berlin, Germany
        url:      http://www.meetup.com/Ember-js-Berlin/
        image:    09berlin.png
        lat:      52.52000659999999
        lng:      13.404954
      - location: Munich, Germany
        url:      http://www.meetup.com/Ember-js-Munich/
        image:    12munich.png
        lat:      48.1351253
        lng:      11.5819806
      - location: Göteborg, Sweden
        url:      http://www.meetup.com/ember-js-goteborg/
        image:    17goteborg.png
        lat:      57.70887
        lng:      11.97456
      - location: Budapest, Hungary
        url:      http://www.meetup.com/ember-bp/
        lat:      47.497912
        lng:      19.040235
      - location: Oslo, Norway
        url:      http://www.meetup.com/Ember-js-Oslo/
        lat:      59.9138688
        lng:      10.7522454
      - location: Brussels, Belgium
        url:      http://www.meetup.com/Ember-js-Brussels/
        lat:      50.8503396
        lng:      4.3517103
      - location: Barcelona, Spain
        url:      http://www.meetup.com/Ember-js-Barcelona/
        image:    22barcelona.png
        lat:      41.3850639
        lng:      2.1734035
      - location: Kyiv, Ukraine
        url:      http://ember-club.kiev.ua
        lat:      50.4501
        lng:      30.5234
      - location: Zürich, Switzerland
        url:      http://www.meetup.com/Ember-js-Zurich/
        lat:      47.3686498
        lng:      8.539182499999999
      - location: Amsterdam, the Netherlands
        url:      http://www.meetup.com/Amsterdam-Ember-js/
        lat:      52.3702157
        lng:      4.895167900000001
  - area: Asia
    groups:
      - location: Tel Aviv, Israel
        url:      http://www.meetup.com/Ember-IL/
        image:    20telaviv.png
        lat:      32.0852999
        lng:      34.78176759999999
      - location: Bangalore, India
        url:      http://www.meetup.com/EmberJS-Bangalore/
        lat:      12.922103
        lng:      77.595324
        organizers:
          - organizer: Sivakumar Kailasam
            profileImage: http://photos2.meetupstatic.com/photos/member/8/a/4/highres_184022212.jpeg
          - organizer: Sanjay Nambiar
            profileImage: http://photos1.meetupstatic.com/photos/member/1/1/5/a/highres_184024442.jpeg
      - location: Tokyo, Japan
        url:      http://emberjs.doorkeeper.jp/
        lat:      35.7090259
        lng:      139.7319925
  - area: Oceania
    groups:
      - location: Adelaide, Australia
        url:      http://www.meetup.com/Ember-js-Adelaide
        lat:      -34.92862119999999
        lng:      138.5999594
      - location: Melbourne, Australia
        url:      http://www.meetup.com/Ember-Melb-JS/
        image:    18melbourne.png
        lat:      -37.814107
        lng:      144.96328
      - location: Wellington, New Zealand
        url:      http://www.meetup.com/ember-js-wellington/
        lat:      -41.298089
        lng:      174.778310
        organizers:
          - organizer: Eoin Kelly
            profileImage: http://photos4.meetupstatic.com/photos/member/1/d/6/c/highres_196567532.jpeg
